City_ID,City,Lat,Lng,Max Temp,Humidity,Cloudiness,Wind Speed,Country,Date
0,st. john's,47.5649,-52.7093,20.71,92,100,10.29,CA,1722973155
1,armacao de buzios,-22.7469,-41.8817,27.09,80,0,10.52,BR,1722973265
2,port-aux-francais,-49.35,70.2167,2.99,77,26,5.9,TF,1722973265
3,port mathurin,-19.6833,63.4167,22.87,72,0,4.78,MU,1722973265
4,fort mcmurray,56.7268,-111.381,21.73,60,0,3.09,CA,1722973265
5,hawaiian paradise park,19.5933,-154.9731,27.71,72,0,1.54,US,1722973266
6,hellertown,40.5795,-75.3407,33.77,59,75,2.06,US,1722973266
7,tsiombe,-25.3,45.4833,18.62,86,43,2.99,MG,1722973266
8,holualoa,19.6228,-155.9522,26.97,76,20,3.09,US,1722973266
9,lebu,-37.6167,-73.65,9.38,64,91,2.14,CL,1722973266
10,adamstown,-25.066,-130.1015,18.94,64,50,4.81,PN,1722973266
11,tindouf,27.6711,-8.1474,43.25,10,0,2.57,DZ,1722973266
12,keetmanshoop,-26.5833,18.1333,16.51,25,1,4.63,NA,1722973266
13,yellowknife,62.456,-114.3525,21.34,41,20,2.06,CA,1722973266
14,kruisfontein,-34.0033,24.7314,9.38,83,0,1.97,ZA,1722973266
15,shimokizukuri,40.8061,140.3861,23.3,96,95,1.19,JP,1722973266
16,ushuaia,-54.8,-68.3,-0.21,69,0,1.03,AR,1722973266
17,kununurra,-15.7667,128.7333,17.99,88,56,0.0,AU,1722973266
18,villa gesell,-37.2639,-56.973,13.36,99,100,0.16,AR,1722973266
19,whitehorse,60.7161,-135.0538,23.43,31,0,8.23,CA,1722973092
20,udachny,66.4167,112.4,6.03,83,37,1.73,RU,1722973266
21,talnakh,69.4865,88.3972,10.06,71,13,4.61,RU,1722973266
22,bolobo,-2.1667,16.2333,26.82,43,82,0.96,CD,1722973266
23,giyani,-23.3025,30.7187,16.38,65,0,1.13,ZA,1722973266
24,mount pearl,47.5166,-52.7813,20.25,91,100,10.29,CA,1722973266
25,longyearbyen,78.2186,15.6401,9.91,87,75,4.12,SJ,1722973266
26,east london,-33.0153,27.9116,15.06,57,0,2.79,ZA,1722973267
27,westport,41.1415,-73.3579,28.81,81,0,5.14,US,1722973267
28,jamestown,42.097,-79.2353,22.23,96,100,3.13,US,1722972977
29,edinburgh of the seven seas,-37.0676,-12.3116,11.24,68,100,11.45,SH,1722973267
30,invercargill,-46.4,168.35,4.45,87,100,0.89,NZ,1722973267
31,bima,-8.4667,118.7167,22.0,96,62,1.53,ID,1722973267
32,gadzhiyevo,69.2551,33.3362,13.67,55,7,3.89,RU,1722973267
33,vadso,70.0744,29.7487,18.49,82,0,4.63,NO,1722973267
34,ghat,24.9647,10.1728,34.72,14,44,5.41,LY,1722973267
35,iqaluit,63.7506,-68.5145,9.85,61,100,5.66,CA,1722973267
36,tamandare,-8.7597,-35.1047,24.63,76,13,4.48,BR,1722973267
37,sokhumi,43.0033,41.0153,22.4,85,0,1.97,GE,1722973267
38,carbonear,47.7332,-53.2148,20.97,86,100,5.2,CA,1722973267
39,pizarro,4.9533,-77.366,26.94,83,58,3.85,CO,1722973267
40,vallenar,-28.5708,-70.7581,18.66,30,27,2.56,CL,1722973267
41,las veredas,23.1388,-109.7075,30.8,80,100,3.09,MX,1722973267
42,petropavlovsk-kamchatsky,53.0452,158.6483,11.33,100,100,1.0,RU,1722973267
43,acarau,-2.8856,-40.12,26.87,69,4,8.87,BR,1722973267
44,west island,-12.1568,96.8225,26.99,74,75,5.14,CC,1722973267
45,marconia,40.3628,16.6876,29.53,54,0,1.54,IT,1722973268
46,prince albert,53.2001,-105.7677,16.97,82,100,3.6,CA,1722973224
47,ugoofaaru,5.6667,73.0,27.92,79,100,4.4,MV,1722973268
48,bethel,41.3712,-73.414,27.78,79,66,1.34,US,1722973268
49,isafjordur,66.0755,-23.124,10.02,81,75,4.63,IS,1722973268
50,utrik,11.2278,169.8474,28.26,78,94,4.91,MH,1722973268
51,santa fe,-31.6333,-60.7,19.97,74,74,4.92,AR,1722973162
52,alta,69.9689,23.2717,18.59,63,0,3.13,NO,1722973268
53,vorgashor,67.5833,63.95,5.28,72,5,3.95,RU,1722973268
54,guerrero negro,27.9769,-114.0611,30.06,47,96,3.85,MX,1722973268
55,albany,42.6001,-73.9662,21.76,73,85,0.45,US,1722973212
56,woolgoolga,-30.1106,153.2007,9.93,66,97,2.45,AU,1722973268
57,greenville,35.6127,-77.3663,25.08,98,100,2.06,US,1722973268
58,olovyannaya,50.95,115.5667,15.67,80,63,0.64,RU,1722973268
59,wickenburg,33.9686,-112.7296,39.99,30,15,1.34,US,1722973268
60,puerto baquerizo moreno,-0.9,-89.6,22.55,73,75,5.66,EC,1722973268
61,salida,37.7058,-121.0849,32.03,27,0,2.27,US,1722973269
62,fortaleza,-3.7227,-38.5247,29.07,58,0,7.72,BR,1722973201
63,amahai,-3.3333,128.9167,24.34,89,58,2.77,ID,1722973269
64,cabo san lucas,22.8909,-109.9124,31.17,70,75,5.14,MX,1722973141
65,bojnurd,37.4747,57.329,24.97,25,0,2.06,IR,1722973269
66,tangalle,6.024,80.7911,25.62,91,100,3.65,LK,1722973269
67,papatowai,-46.5619,169.4708,6.07,70,17,2.99,NZ,1722973269
68,waitangi,-43.9535,-176.5597,6.57,67,0,1.1,NZ,1722973269
69,avarua,-21.2078,-159.775,23.03,94,75,0.51,CK,1722973269
70,bredasdorp,-34.5322,20.0403,10.06,90,0,0.7,ZA,1722973269
71,labytnangi,66.6572,66.4183,6.35,75,0,2.03,RU,1722973269
72,prievidza,48.7745,18.6275,19.01,72,0,1.53,SK,1722973269
73,tongren,27.7172,109.1853,24.86,86,1,1.5,CN,1722973269
74,gamay,12.3854,125.2979,24.52,90,87,1.32,PH,1722973269
75,wailua homesteads,22.0669,-159.378,28.24,71,0,5.14,US,1722973269
76,sosenskiy,54.059,35.9623,15.71,85,85,1.34,RU,1722973269
77,tazovsky,67.4667,78.7,5.95,87,0,6.13,RU,1722973269
78,gorontalo,0.5412,123.0595,22.78,98,100,1.07,ID,1722973269
79,aykhal,66.0,111.5,5.49,85,35,1.55,RU,1722973269
80,newman,37.3138,-121.0208,33.19,7,0,1.11,US,1722973269
81,bilibino,68.0546,166.4372,4.89,65,11,1.02,RU,1722973270
82,ringkobing,56.0901,8.244,19.99,73,20,2.57,DK,1722973270
83,marzahn,52.5453,13.5698,22.16,57,0,2.57,DE,1722973270
84,quatre cocos,-20.2078,57.7625,20.05,75,3,3.18,MU,1722973270
85,hammerfest,70.6634,23.6821,18.25,59,10,2.57,NO,1722973270
86,atafu village,-8.5421,-172.5159,27.72,79,80,7.08,TK,1722973270
87,tiksi,71.6872,128.8694,9.99,89,100,2.29,RU,1722973270
88,shendi,16.6915,33.4341,28.67,63,57,6.57,SD,1722973169
89,kingston,17.997,-76.7936,33.98,70,20,6.69,JM,1722973221
90,reggane,26.7158,0.1714,41.03,9,1,3.26,DZ,1722973270
91,zouerate,22.7187,-12.4521,37.8,14,6,5.42,MR,1722973270
92,portland,45.5234,-122.6762,25.35,50,0,1.34,US,1722972972
93,pagar alam,-4.0167,103.2667,19.08,90,49,1.07,ID,1722973271
94,aasiaat,68.7098,-52.8699,3.95,93,73,2.81,GL,1722973271
95,dwarka,22.2394,68.9678,27.89,86,100,9.68,IN,1722973271
96,galveston,29.3669,-94.9669,36.21,62,1,4.22,US,1722973254
97,thompson,55.7435,-97.8558,16.09,77,75,2.06,CA,1722973271
98,campbell river,50.0163,-125.2446,23.66,56,20,3.09,CA,1722973272
99,lukolela,-1.0605,17.1821,27.21,44,84,1.0,CD,1722973272
100,ribeira grande,38.5167,-28.7,26.22,73,40,3.6,PT,1722973272
101,dakhla,23.6848,-15.958,22.01,83,5,10.8,EH,1722973273
102,port saint john's,-31.6229,29.5448,15.03,70,0,2.06,ZA,1722973273
103,blackmans bay,-43.0167,147.3167,10.96,70,97,0.89,AU,1722973273
104,cobram,-35.9167,145.65,6.58,81,76,2.1,AU,1722973274
105,tamanrasset,22.785,5.5228,33.95,10,0,2.06,DZ,1722973274
106,mubi,10.2676,13.2644,21.74,90,100,0.91,NG,1722973274
107,maqat,47.65,53.3167,30.72,33,87,3.6,KZ,1722973274
108,vuktyl,63.8567,57.3094,9.33,70,95,1.78,RU,1722973275
109,port elizabeth,-33.918,25.5701,12.16,90,0,1.54,ZA,1722973276
110,college,64.8569,-147.8028,25.61,44,75,3.09,US,1722973276
111,grytviken,-54.2811,-36.5092,-8.7,71,29,3.89,GS,1722973276
112,cortez,37.3489,-108.5859,32.61,23,0,3.09,US,1722973276
113,melipilla,-33.7,-71.2167,14.86,59,37,3.15,CL,1722973276
114,carnarvon,-24.8667,113.6333,18.95,71,0,3.22,AU,1722973276
115,qaqortoq,60.7167,-46.0333,7.6,99,100,1.51,GL,1722973276
116,saudarkrokur,65.7461,-19.6394,9.01,92,100,2.57,IS,1722973276
117,weno,7.4515,151.8468,26.97,89,100,0.0,FM,1722973276
118,katsuura,35.1333,140.3,25.51,94,95,3.13,JP,1722973276
119,vanimo,-2.6741,141.3028,24.85,91,100,2.7,PG,1722973277
120,harper,4.375,-7.7169,24.02,81,100,4.85,LR,1722973277
121,rocky mountain house,52.3668,-114.9188,14.06,88,100,1.54,CA,1722973277
122,lompoc,34.6391,-120.4579,35.08,42,2,3.28,US,1722973277
123,sao joao da barra,-21.6403,-41.0511,27.05,84,0,8.24,BR,1722973277
124,hasaki,35.7333,140.8333,26.27,92,7,3.82,JP,1722973277
125,kapa'a,22.0752,-159.319,28.99,71,0,5.14,US,1722973277
126,iskateley,67.6803,53.1512,6.17,84,8,3.65,RU,1722973277
127,tolanaro,-25.0319,46.9987,22.04,83,75,5.14,MG,1722973277
128,hermanus,-34.4187,19.2345,10.45,87,0,0.15,ZA,1722973277
129,vanino,49.0869,140.2543,17.36,97,2,1.24,RU,1722973277
130,ji'an,27.1172,114.9793,25.74,84,7,1.79,CN,1722973277
131,pandan,14.0453,124.1694,26.77,87,75,4.48,PH,1722973277
132,komsomol'skiy,43.9783,46.6985,25.37,58,0,2.43,RU,1722973277
133,dudinka,69.4058,86.1778,6.85,70,0,8.65,RU,1722973277
134,sangod,24.9167,76.2833,25.98,88,100,6.08,IN,1722973277
135,rundu,-17.9333,19.7667,18.59,18,0,1.84,NA,1722973277
136,zaozersk,69.4005,32.4476,11.68,70,8,0.52,RU,1722973278
137,bridgewater,44.3835,-64.5155,19.23,90,100,0.51,CA,1722973278
138,kayangel,8.0823,134.7173,28.67,76,100,4.51,PW,1722973278
139,haiku-pauwela,20.9219,-156.3051,27.87,70,0,8.23,US,1722973278
140,puerto natales,-51.7236,-72.4875,-0.75,80,75,1.54,CL,1722973068
141,bel ombre,-4.6167,55.4167,25.91,83,20,3.6,SC,1722973278
142,yangshuo,24.7808,110.4897,25.81,88,48,0.67,CN,1722973278
143,progreso,21.2833,-89.6667,36.17,63,100,6.31,MX,1722973278
144,kodiak,57.79,-152.4072,12.73,100,100,5.14,US,1722973278
145,palmer,42.1584,-72.3287,22.12,78,100,2.06,US,1722972992
146,margaret river,-33.95,115.0667,15.43,74,96,9.53,AU,1722973278
147,pangody,65.85,74.4859,6.63,80,0,4.67,RU,1722973278
148,palestine,31.9216,35.2033,22.74,68,0,1.73,PS,1722973278
149,new norfolk,-42.7826,147.0587,11.62,72,84,3.86,AU,1722973279
150,ilulissat,69.2167,-51.1,9.01,76,20,1.54,GL,1722973279
151,polyarnyy,69.1989,33.4478,13.65,54,5,4.42,RU,1722973279
152,egersund,58.4513,5.9997,20.6,82,100,8.11,NO,1722973279
153,illizi,26.4833,8.4667,35.89,11,0,4.35,DZ,1722973279
154,vylkove,45.4021,29.586,16.76,93,100,2.76,UA,1722973279
155,ancud,-41.8697,-73.8203,8.41,73,54,3.81,CL,1722973279
156,saipan,15.1355,145.701,27.39,94,0,1.54,MP,1722973279
157,monrovia,6.3005,-10.7969,24.87,82,99,4.63,LR,1722973279
158,keflavik,64.0049,-22.5624,13.95,82,0,3.6,IS,1722973279
159,antalaha,-14.9003,50.2788,19.1,86,7,2.9,MG,1722973279
160,mchinji,-13.7984,32.8802,16.32,36,0,1.31,MW,1722973279
161,mildura,-34.2,142.15,6.74,81,0,3.56,AU,1722973279
162,beylikova,39.6869,31.2056,22.07,48,0,2.89,TR,1722973279
163,ola,59.5833,151.2833,9.88,93,100,1.69,RU,1722973279
164,banyo,6.75,11.8167,18.25,96,94,1.2,CM,1722973279
165,midvagur,62.0511,-7.1939,12.46,87,100,7.72,FO,1722973280
166,chernyshevskiy,63.0128,112.4714,8.03,75,89,1.73,RU,1722973280
167,shihezi,44.3,86.0333,27.51,29,100,0.53,CN,1722973280
168,maloye ganyushkino,46.6,49.2667,29.16,36,84,5.7,KZ,1722973280
169,brisas de zicatela,15.8369,-97.0419,30.58,65,100,3.63,MX,1722973280
170,flying fish cove,-10.4217,105.6791,24.82,88,100,5.14,CX,1722973280
171,monaghan,54.25,-6.9667,16.33,90,40,5.13,IE,1722973280
172,laguna,38.421,-121.4238,37.02,29,0,2.06,US,1722973023
173,okhotsk,59.3833,143.3,10.08,88,100,4.72,RU,1722973280
174,glace bay,46.1969,-59.957,21.66,70,100,4.63,CA,1722973280
175,constantia,44.1833,28.65,19.38,88,27,5.96,RO,1722973280
176,paradip garh,20.3167,86.6167,27.16,86,100,3.22,IN,1722973280
177,kone,-21.0595,164.8658,17.54,74,46,1.91,NC,1722973280
178,sitka,57.0531,-135.33,13.94,88,100,1.54,US,1722973280
179,colac,-38.3333,143.5833,9.91,96,100,2.98,AU,1722973280
180,kapoeta,4.7717,33.5903,23.02,79,100,1.47,SS,1722973280
181,whakatane,-37.9585,176.9854,4.87,99,25,1.71,NZ,1722973280
182,solnechnyy,50.7214,136.6319,19.8,90,100,1.32,RU,1722973280
183,hithadhoo,-0.6,73.0833,28.17,72,21,0.98,MV,1722973280
184,itaituba,-4.2761,-55.9836,36.09,34,20,2.06,BR,1722973281
185,khandyga,62.6667,135.6,10.0,93,99,1.44,RU,1722973167
186,al manshah,26.4769,31.8035,35.14,20,0,5.14,EG,1722973281
187,sheridan,44.8333,-106.9173,35.73,29,0,1.54,US,1722973281
188,xiaoweizhai,26.1903,107.5125,21.37,98,10,1.53,CN,1722973281
189,veraval,20.9,70.3667,27.7,83,95,7.67,IN,1722973281
190,georgetown,5.4112,100.3354,27.96,83,20,2.06,MY,1722973281
191,aleksandrovsk-sakhalinskiy,50.8975,142.1561,17.55,91,66,6.37,RU,1722973281
192,pacific grove,36.6177,-121.9166,28.47,87,40,3.58,US,1722973281
193,igarka,67.4667,86.5833,10.22,69,37,6.71,RU,1722973281
194,bliss corner,41.6118,-70.9384,22.03,91,100,3.58,US,1722973281
195,slyudyanka,51.6594,103.7061,16.12,95,85,1.32,RU,1722973281
196,flin flon,54.7682,-101.865,19.91,52,75,3.6,CA,1722973281
197,lihue,21.9789,-159.3672,28.58,72,0,5.14,US,1722973235
198,enewetak,11.3474,162.3373,28.28,79,17,4.67,MH,1722973282
199,bonoua,5.2741,-3.595,24.79,89,68,3.09,CI,1722973282
200,olonkinbyen,70.9221,-8.7187,6.06,100,100,5.27,SJ,1722973282
201,korostyshiv,50.3172,29.0563,15.94,95,100,3.1,UA,1722973282
202,santana do livramento,-30.8908,-55.5328,19.5,99,100,4.33,BR,1722973282
203,nova sintra,14.8667,-24.7167,25.88,83,100,5.81,CV,1722973282
204,saldanha,-33.0117,17.9442,11.03,81,0,3.74,ZA,1722973282
205,ketchikan,55.3422,-131.6461,18.52,60,12,1.59,US,1722973117
206,mugia,43.1041,-9.2179,20.65,80,6,7.29,ES,1722973282
207,kavaratti,10.5669,72.642,27.07,83,100,4.73,IN,1722973282
208,sweetwater,25.7634,-80.3731,33.89,70,100,5.66,US,1722973201
209,isangel,-19.55,169.2667,20.11,69,24,4.46,VU,1722973282
210,san pedro de macoris,18.4616,-69.2972,34.07,67,63,4.0,DO,1722973142
211,punta arenas,-53.15,-70.9167,0.06,86,75,2.06,CL,1722973020
212,hamilton,39.1834,-84.5333,35.5,51,0,4.12,US,1722973282
213,heihe,50.2441,127.4902,19.32,82,6,1.24,CN,1722973282
214,nuuk,64.1835,-51.7216,9.34,93,75,2.06,GL,1722973282
215,konosha,60.9736,40.257,13.81,96,100,1.8,RU,1722973282
216,nyurba,63.2842,118.3319,7.8,88,0,1.65,RU,1722973282
217,sao felix do xingu,-6.6447,-51.995,36.05,16,6,1.66,BR,1722973283
218,maceio,-9.6658,-35.7353,23.69,73,75,4.12,BR,1722973170
219,rabo de peixe,37.8,-25.5833,25.73,73,20,5.66,PT,1722973283
220,kangding,30.0513,101.9603,16.74,95,90,1.06,CN,1722973283
221,mamuju,-2.6748,118.8885,24.9,90,80,2.01,ID,1722973283
222,alaghsas,17.0187,8.0168,35.11,30,11,2.39,NE,1722973283
223,envira,-7.3,-70.2167,29.68,60,91,1.03,BR,1722973283
224,robbah,33.2797,6.9098,36.8,20,0,2.56,DZ,1722973283
225,lahore,31.5497,74.3436,31.06,74,20,2.57,PK,1722973034
226,koupela,12.1794,-0.3517,26.06,83,97,3.84,BF,1722973283
227,nevada,39.2502,-116.7512,29.3,14,0,5.23,US,1722973283
228,springbok,-29.6643,17.8865,11.17,29,5,2.21,ZA,1722973283
229,lautoka,-17.6167,177.4667,14.92,88,20,2.57,FJ,1722973283
230,velikovechnoye,44.934,39.755,19.75,71,0,3.19,RU,1722973283
231,christchurch,-43.5333,172.6333,0.93,77,0,0.94,NZ,1722973245
232,mount gambier,-37.8333,140.7667,6.99,100,94,2.49,AU,1722973283
233,kiuruvesi,63.65,26.6167,13.01,64,100,1.17,FI,1722973283
234,ta`u,-14.2336,-169.5144,25.68,74,3,4.69,AS,1722973283
235,selty,57.3132,52.1345,15.51,89,36,0.96,RU,1722973284
236,buka,40.8108,69.1986,23.97,28,0,0.35,UZ,1722973284
237,revda,56.801,59.9303,13.37,99,60,1.54,RU,1722973284
238,taperoa,-7.2075,-36.8267,27.51,39,27,8.11,BR,1722973284
239,mahajanga,-15.7167,46.3167,24.01,88,0,3.09,MG,1722973284
240,gumdag,39.2061,54.5906,33.82,27,42,1.07,TM,1722973284
241,usinsk,65.9939,57.5281,8.72,69,7,5.46,RU,1722973284
242,kidal,18.4411,1.4078,33.87,32,54,3.97,ML,1722973284
243,strathmore,51.0501,-113.3852,15.75,77,100,3.09,CA,1722973284
244,hojai,26.0,92.8667,24.55,97,99,1.95,IN,1722973284
245,port pirie,-33.1833,138.0167,8.7,70,51,2.5,AU,1722973284
246,nova xavantina,-14.6667,-52.35,33.43,19,0,3.05,BR,1722973284
247,dauphin,51.1494,-100.0502,20.08,68,75,2.57,CA,1722973284
248,erdenet,49.0333,104.0833,13.41,89,100,1.27,MN,1722973284
249,la passe,45.5549,-0.8967,22.23,84,100,2.94,FR,1722973284
250,bardai,11.65,7.2333,22.56,88,45,4.79,NG,1722973284
251,mangrol,21.1167,70.1167,27.88,82,99,8.14,IN,1722973284
252,kirakira,-10.4544,161.9205,25.53,86,97,5.09,SB,1722973284
253,las khorey,11.1595,48.1967,32.28,58,22,3.39,SO,1722973285
254,burang,30.25,81.1667,10.77,86,100,2.36,CN,1722973285
255,rubtsovsk,51.5,81.25,16.9,84,86,1.74,RU,1722973285
256,kerikeri,-35.2268,173.9474,7.36,91,36,0.93,NZ,1722973286
257,arrifes,37.7667,-25.7,25.14,73,20,5.66,PT,1722973286
258,berezniki,59.4152,56.8124,13.1,97,86,2.61,RU,1722973286
259,fisterra,42.9049,-9.2629,20.57,81,0,7.95,ES,1722973286
260,luganville,-15.5333,167.1667,23.04,75,100,5.49,VU,1722973287
261,san luis de la loma,17.2706,-100.8939,30.75,66,99,3.87,MX,1722973287
262,neryungri,56.6709,124.6491,8.9,94,64,0.44,RU,1722973287
263,robertsport,6.7533,-11.3686,25.48,82,100,6.02,LR,1722973287
264,brioude,45.1667,3.4167,22.35,69,93,1.2,FR,1722973288
265,neiafu,-18.65,-173.9833,15.38,100,20,0.0,TO,1722973288
266,trinity beach,-16.7888,145.6968,19.94,90,27,2.83,AU,1722973288
267,ust-nera,64.5667,143.2,10.36,89,100,2.06,RU,1722973288
268,richards bay,-28.783,32.0377,18.73,70,0,4.74,ZA,1722973288
269,uturoa,-16.7333,-151.4333,25.71,86,17,7.6,PF,1722973289
270,saynshand,44.8824,110.1163,21.73,52,5,3.3,MN,1722973289
271,chonchi,-42.6128,-73.8092,10.62,82,98,1.23,CL,1722973289
272,kyabe,9.4515,18.9449,23.25,92,91,2.03,TD,1722973290
273,nagqu,31.5,92.0,4.51,79,76,1.42,CN,1722973290
274,klyuchi,52.2667,79.1667,18.5,81,83,2.61,RU,1722973290
275,elverum,60.8819,11.5623,16.0,76,100,1.92,NO,1722973291
276,ilha de mocambique,-15.0342,40.7358,24.56,74,0,6.38,MZ,1722973291
277,badger,64.8,-147.5333,25.56,42,75,3.09,US,1722973291
278,port macquarie,-31.4333,152.9167,8.37,93,61,1.34,AU,1722973291
279,mersa matruh,31.3525,27.2453,28.11,74,0,2.57,EG,1722973291
280,jamaame,0.0697,42.745,24.62,86,20,6.37,SO,1722973291
281,safotu,-13.4513,-172.4018,26.82,83,54,6.57,WS,1722973291
282,kristiansund,63.1115,7.732,20.36,87,75,4.63,NO,1722973291
283,international falls,48.6011,-93.411,25.64,42,0,2.06,US,1722973199
284,puerto ayora,-0.7393,-90.3518,24.98,96,70,3.58,EC,1722973291
285,agat village,13.3886,144.6585,27.52,85,0,0.0,GU,1722973291
286,jiujiang,29.7333,115.9833,27.08,85,10,1.48,CN,1722973291
287,port alfred,-33.5906,26.891,14.64,76,0,2.94,ZA,1722973291
288,nazyvayevsk,55.5698,71.3529,15.29,96,2,3.06,RU,1722973291
289,yelizovo,53.1873,158.3805,12.08,100,100,1.0,RU,1722973291
290,uaua,-9.8414,-39.4817,28.49,30,47,6.31,BR,1722973291
291,rosario do sul,-30.2583,-54.9142,22.15,84,100,3.91,BR,1722973291
292,kievka,50.2619,71.5514,22.02,50,10,4.52,KZ,1722973291
293,fomboni,-12.28,43.7425,25.36,72,0,4.78,KM,1722973292
294,hami,42.8,93.45,31.26,17,99,5.41,CN,1722973292
295,port lincoln,-34.7333,135.8667,9.68,80,8,4.96,AU,1722973292
296,amga,60.8953,131.9608,7.62,97,0,1.58,RU,1722973292
297,vernon,50.2581,-119.2691,29.05,33,1,1.54,CA,1722973292
298,malakal,9.5334,31.6605,22.16,96,100,1.44,SS,1722973292
299,alice springs,-23.7,133.8833,3.75,93,2,1.54,AU,1722973292
300,quellon,-43.1167,-73.6167,8.19,82,70,3.49,CL,1722973292
301,santarem,-2.4431,-54.7083,32.07,58,20,4.12,BR,1722973192
302,le port,-20.9373,55.2919,21.0,85,5,2.22,RE,1722973292
303,la sarre,48.8002,-79.1996,20.54,38,56,4.93,CA,1722973292
304,port douglas,-16.4833,145.4667,19.8,86,55,1.85,AU,1722973292
305,mukalla,14.5425,49.1242,28.28,75,3,1.89,YE,1722973292
306,vilyuchinsk,52.9306,158.4028,12.15,97,100,0.89,RU,1722973292
307,egilsstadir,65.2653,-14.3948,14.95,58,40,5.66,IS,1722973292
308,ciudad rio bravo,25.9833,-98.1,37.94,41,40,5.14,MX,1722973292
309,codrington,-38.2667,141.9667,7.01,97,61,4.81,AU,1722973292
310,saveh,35.0213,50.3566,35.63,13,30,2.23,IR,1722973292
311,north bend,43.4065,-124.2243,24.03,59,0,8.23,US,1722973292
312,limulunga,-15.0969,23.1376,18.39,13,0,2.15,ZM,1722973292
313,ciudad madero,22.2667,-97.8333,32.11,70,75,2.06,MX,1722973292
314,hengchun,22.0042,120.7439,28.62,78,100,3.15,TW,1722973293
315,al ain city,24.1917,55.7606,31.79,62,0,1.03,AE,1722973293
316,oamaru,-45.0784,170.9801,6.88,53,6,3.26,NZ,1722973293
317,baharly,38.4362,57.4316,32.09,16,0,2.92,TM,1722973293
318,yichun,47.7,128.9,18.39,95,86,0.53,CN,1722973293
319,al ghayzah,16.2079,52.176,24.41,93,74,5.03,YE,1722973293
320,anadyr,64.75,177.4833,4.28,80,100,6.0,RU,1722973293
321,tara,56.8944,74.371,15.98,94,100,1.33,RU,1722973293
322,mana,5.6592,-53.7767,29.04,67,9,3.96,GF,1722973293
323,stanley,54.868,-1.6985,16.77,67,20,3.09,GB,1722973293
324,parabel',58.6978,81.4825,13.19,95,73,2.83,RU,1722973293
325,alo,6.5486,4.2686,24.71,86,23,4.72,NG,1722973293
326,bikenibeu village,1.3673,173.1241,27.98,78,40,1.54,KI,1722973293
327,nong khai,17.9167,103.0833,24.39,90,100,2.48,TH,1722973293
328,moree,-29.4667,149.85,7.65,81,74,2.75,AU,1722973293
329,zadar,44.1197,15.2422,26.34,50,0,2.06,HR,1722973293
330,harstad,68.799,16.5293,20.66,66,2,0.86,NO,1722973293
331,la mira tumbiscatio,18.6833,-102.2833,32.1,54,100,1.31,MX,1722973293
332,baissa,7.2333,10.6333,22.62,97,98,0.85,NG,1722973294
333,nuevitas,21.5453,-77.2644,31.14,64,66,5.31,CU,1722973294
334,portales,34.1862,-103.3344,33.55,16,0,3.54,US,1722973294
335,torquay,50.4638,-3.5143,19.21,80,0,1.34,GB,1722973294
336,idritsa,56.3316,28.8988,15.36,93,39,1.19,RU,1722973294
337,lethem,3.3803,-59.7968,31.89,58,40,1.86,GY,1722973294
338,tura,25.5198,90.2201,24.55,95,100,2.62,IN,1722973294
339,kavieng,-2.5744,150.7967,27.55,79,93,5.75,PG,1722973294
340,brandon,27.9378,-82.2859,33.49,71,75,6.17,US,1722973294
341,lata,40.1629,-8.3327,20.6,94,72,1.69,PT,1722973294
342,pariaman,-0.619,100.12,25.03,88,70,1.96,ID,1722973294
343,rio guayabal de yateras,20.3667,-75.0167,27.47,79,100,1.82,CU,1722973294
344,chegdomyn,51.1167,133.0167,14.68,96,0,0.85,RU,1722973294
345,kolokani,13.5728,-8.0339,26.14,79,94,2.71,ML,1722973294
346,nangong,37.3581,115.3744,25.31,84,47,1.52,CN,1722973294
347,siofok,46.9041,18.058,22.74,44,30,1.45,HU,1722973294
348,tarfaya,27.9358,-12.9218,20.81,88,0,8.75,MA,1722973294
349,tambacounda,13.7539,-13.7586,32.03,66,20,2.06,SN,1722973294
350,ohara,35.25,140.3833,25.5,95,98,3.32,JP,1722973294
351,hadibu,12.65,54.0333,25.27,81,18,7.14,YE,1722973295
352,tazacorte,28.629,-17.9293,23.54,84,75,7.2,ES,1722973295
353,tomatlan,19.9333,-105.25,30.13,76,100,5.46,MX,1722973295
354,morehead city,34.7229,-76.726,28.0,91,100,5.14,US,1722973295
355,lib,8.3122,167.3766,28.45,75,100,3.82,MH,1722973295
356,krasnoshchekovo,51.6708,82.7289,15.58,86,69,2.36,RU,1722973295
357,kudahuvadhoo,2.6708,72.8944,27.89,75,99,2.07,MV,1722973295
358,nadi,-17.8,177.4167,15.0,88,20,2.57,FJ,1722973040
359,huilong,31.8111,121.655,27.37,90,8,3.87,CN,1722973295
360,dryden,49.7833,-92.7503,23.16,33,20,5.14,CA,1722973295
361,opuwo,-18.0607,13.84,19.4,26,0,2.34,NA,1722973295
362,obo,5.3998,26.4869,24.25,73,100,1.55,CF,1722973295
363,luninyets,52.2472,26.8047,16.16,90,99,1.69,BY,1722973295
364,saint-pierre,-21.3393,55.4781,20.82,60,100,3.09,RE,1722973295
365,viedma,-40.8135,-62.9967,11.28,63,100,7.51,AR,1722973295
366,machico,32.7,-16.7667,25.35,61,20,5.66,PT,1722973295
367,moose jaw,50.4001,-105.5344,19.15,88,100,2.06,CA,1722973264
368,thunder bay,48.4001,-89.3168,25.95,36,40,6.17,CA,1722973277
369,mansa,29.9833,75.3833,28.72,79,4,3.9,IN,1722973296
370,maru,12.3342,6.4057,25.09,85,89,5.18,NG,1722973296
371,villiers,-27.0303,28.6006,9.26,20,0,0.73,ZA,1722973296
372,jiwani,25.05,61.7417,27.57,82,100,5.86,PK,1722973296
373,kupang,-10.1667,123.5833,26.32,83,18,5.66,ID,1722973296
374,happy valley-goose bay,53.3168,-60.3315,18.17,63,75,3.09,CA,1722973296
375,dalmatovo,56.26,62.9362,15.45,92,6,2.33,RU,1722973296
376,pisco,-13.7,-76.2167,21.03,64,39,9.77,PE,1722973296
377,cockburn town,21.4612,-71.1419,31.98,70,40,7.72,TC,1722973296
378,ushtobe,45.2514,77.9838,22.98,32,3,3.65,KZ,1722973296
379,barobo,8.5353,126.1214,22.76,100,100,0.96,PH,1722973296
380,dipayal,29.2608,80.94,25.42,99,100,0.79,NP,1722973296
381,fortuna,40.5982,-124.1573,18.51,77,20,5.14,US,1722973296
382,norilsk,69.3535,88.2027,9.29,74,5,3.92,RU,1722973296
383,hirara,24.8,125.2833,28.15,100,75,6.17,JP,1722973296
384,nobeoka,32.5833,131.6667,25.58,89,100,1.74,JP,1722973296
385,kelibia,36.8476,11.0939,27.14,83,20,1.54,TN,1722973296
386,salto,-31.3833,-57.9667,19.09,99,100,2.06,UY,1722973269
387,kalispell,48.1958,-114.3129,29.39,43,9,2.24,US,1722973297
388,tufanbeyli,38.2633,36.2206,19.24,79,0,0.72,TR,1722973297
389,daru,-9.0763,143.2092,24.08,88,100,7.19,PG,1722973297
390,porto de moz,-1.7483,-52.2383,30.39,51,96,1.14,BR,1722973297
391,kalmunai,7.4167,81.8167,27.34,84,90,3.04,LK,1722973297
392,inhambane,-23.865,35.3833,20.99,68,20,2.06,MZ,1722973297
393,yoko,5.5333,12.3167,18.37,99,84,1.95,CM,1722973297
394,khovd,48.0056,91.6419,18.16,38,46,0.67,MN,1722973297
395,mutuali,-14.8706,37.0044,19.98,46,0,2.66,MZ,1722973297
396,gornyye klyuchi,45.25,133.5,21.72,99,97,1.18,RU,1722973297
397,tartagal,-22.5164,-63.8013,27.55,43,100,1.28,AR,1722973297
398,jayapura,-2.5333,140.7,24.66,95,100,2.17,ID,1722973297
399,larne,54.85,-5.8167,16.98,80,16,4.88,GB,1722973297
400,griffith,41.5284,-87.4237,23.27,88,100,6.69,US,1722973297
401,port augusta,-32.5,137.7667,7.8,73,36,2.35,AU,1722973297
402,sakaiminato,35.55,133.2333,24.99,100,40,1.54,JP,1722973297
403,gimbi,9.1667,35.8333,11.63,97,94,0.98,ET,1722973297
404,banda aceh,5.5577,95.3222,26.6,77,100,6.07,ID,1722973297
405,arkhangel'sk,64.5401,40.5433,13.06,82,20,3.0,RU,1722973297
406,susuman,62.7833,148.1667,8.66,85,100,1.52,RU,1722973298
407,taitung city,22.7583,121.1444,26.94,79,10,1.93,TW,1722973298
408,winnemucca,40.973,-117.7357,36.03,5,0,6.69,US,1722973298
409,madimba,-10.4,40.3333,22.62,88,20,2.06,TZ,1722973298
410,antibes,43.5624,7.1278,27.02,78,0,2.06,FR,1722973298
411,naze,28.3667,129.4833,25.51,83,6,0.36,JP,1722973298
412,sovetskiy,61.3614,63.5842,13.35,67,100,3.52,RU,1722973298
413,karystos,38.0133,24.4161,27.55,60,0,2.36,GR,1722973298
414,ar ruseris,11.8659,34.3869,22.42,88,100,3.1,SD,1722973298
415,nova vicosa,-17.8919,-39.3719,23.75,69,0,4.12,BR,1722973298
416,ambo,-10.1308,-76.2047,25.26,43,25,5.69,PE,1722973298
417,songjianghe,42.1859,127.479,18.87,98,100,1.56,CN,1722973298
418,boca suno,-0.7167,-77.1333,28.77,61,53,1.02,EC,1722973298
419,kas,36.2018,29.6377,28.67,53,0,2.82,TR,1722973298
420,terrace,54.5163,-128.6035,29.01,31,20,4.12,CA,1722973298
421,iwye,53.9299,25.7727,15.14,89,0,2.59,BY,1722973299
422,colares,38.7992,-9.4469,24.82,77,20,11.83,PT,1722973299
423,calama,-22.4667,-68.9333,18.27,10,0,10.29,CL,1722973091
424,nellore,14.4333,79.9667,25.5,90,100,1.38,IN,1722973299
425,bengkulu,-3.8004,102.2655,23.5,95,97,2.18,ID,1722973299
426,kigorobya,1.6162,31.3089,20.65,73,51,2.77,UG,1722973299
427,tateyama,34.9833,139.8667,27.28,91,100,2.4,JP,1722973299
428,sisimiut,66.9395,-53.6735,6.68,85,100,2.02,GL,1722973299
429,tuburan,6.6439,122.2736,27.06,81,100,2.71,PH,1722973299
430,labrador city,52.9463,-66.9114,12.95,69,75,6.71,CA,1722973210
431,siuna,13.7332,-84.7773,30.15,69,100,3.35,NI,1722973299
432,arraial do cabo,-22.9661,-42.0278,26.98,69,0,7.2,BR,1722973299
433,hefei,31.8639,117.2808,25.01,94,0,0.0,CN,1722973300
434,mejit,10.2753,170.8646,28.27,77,100,6.03,MH,1722973300
435,kampong thom,12.7111,104.8887,26.12,84,53,1.35,KH,1722973300
436,kutum,14.2,24.6667,23.29,76,96,6.0,SD,1722973300
437,usogorsk,63.4106,48.6872,10.9,78,61,1.05,RU,1722973300
438,conceicao da barra,-18.5933,-39.7322,23.14,72,10,2.98,BR,1722973301
439,tarko-sale,64.9225,77.785,7.67,71,5,5.63,RU,1722973301
440,dunay,42.8803,132.3375,20.75,97,99,2.42,RU,1722973301
441,kapuskasing,49.4169,-82.4331,21.05,40,75,6.69,CA,1722973302
442,lengshuitan,26.4111,111.5956,26.58,84,64,2.31,CN,1722973302
443,colonia,50.9333,6.95,26.64,70,0,1.03,DE,1722973104
444,potosi,-19.5836,-65.7531,14.48,21,20,7.72,BO,1722973302
445,malvan,16.0667,73.4667,26.26,84,100,3.34,IN,1722973303
446,el charco,2.4769,-78.1105,27.2,80,99,3.29,CO,1722973303
447,maintirano,-18.0667,44.0167,22.98,73,0,5.24,MG,1722973303
448,grande prairie,55.1667,-118.8027,18.1,72,75,3.6,CA,1722973303
449,hassi messaoud,31.6804,6.0729,37.92,17,0,2.06,DZ,1722973304
450,walvis bay,-22.9575,14.5053,12.83,94,41,0.91,NA,1722973304
451,arizona city,32.7559,-111.671,40.08,29,0,0.89,US,1722973304
452,axim,4.8699,-2.2405,23.34,88,72,4.39,GH,1722973304
453,cabugao,17.7931,120.4578,25.92,88,98,3.29,PH,1722973305
454,cururupu,-1.8283,-44.8683,28.22,65,99,2.23,BR,1722973305
455,timberlake,37.3207,-79.2575,30.67,70,75,2.06,US,1722973305
456,rio grande,-32.035,-52.0986,20.06,99,100,4.51,BR,1722973305
457,kalianget,-7.05,113.9333,25.71,79,5,3.46,ID,1722973305
458,laojunmiao,39.8333,97.7333,22.56,31,0,2.54,CN,1722973305
459,novo aripuana,-5.1206,-60.3797,37.74,22,27,1.71,BR,1722973305
460,notodden,59.5594,9.2585,18.75,81,100,0.45,NO,1722973177
461,salalah,17.0151,54.0924,25.05,100,100,1.54,OM,1722973038
462,northam,51.0333,-4.2167,17.44,83,0,5.33,GB,1722973305
463,vilaka,57.1846,27.6722,14.73,95,79,2.22,LV,1722973306
464,calvinia,-31.4707,19.776,11.18,26,0,3.16,ZA,1722973306
465,el colorado,-26.3081,-59.3729,33.75,25,100,4.06,AR,1722973306
466,kalulushi,-12.8378,28.0919,17.69,26,1,2.05,ZM,1722973306
467,letterkenny,54.95,-7.7333,14.94,84,5,4.06,IE,1722973306
468,karkira,36.9292,6.5856,23.15,75,0,1.35,DZ,1722973306
469,chibuto,-24.6867,33.5306,16.37,79,0,2.92,MZ,1722973306
470,issia,6.4922,-6.5856,22.02,97,98,1.61,CI,1722973306
471,cestos city,5.46,-9.5828,25.01,81,100,4.52,LR,1722973306
472,grand falls-windsor,48.9332,-55.6649,21.95,60,22,0.45,CA,1722973306
473,acapulco de juarez,16.8634,-99.8901,30.9,66,75,4.63,MX,1722973069
474,remire-montjoly,4.9167,-52.2667,31.02,70,20,8.23,GF,1722973306
475,sebdou,34.637,-1.3314,20.61,49,8,2.76,DZ,1722973306
476,al jawf,29.5,38.75,28.19,16,0,2.25,SA,1722973306
477,businga,3.3333,20.8833,24.89,71,77,0.46,CD,1722973306
478,qarauyl,48.9451,79.255,19.78,56,12,0.42,KZ,1722973306
479,minas de marcona,-15.2119,-75.1103,14.62,65,4,8.46,PE,1722973306
480,ornskoldsvik,63.2909,18.7153,16.53,82,0,0.0,SE,1722973306
481,nikolayevsk-on-amure,53.1406,140.73,19.51,99,100,1.14,RU,1722973306
482,ambodifotatra,-16.9833,49.85,23.29,71,5,1.71,MG,1722973306
483,cuatro cienegas de carranza,26.9833,-102.0833,34.64,26,0,4.08,MX,1722973307
484,mahishadal,22.1833,87.9833,27.23,89,100,3.41,IN,1722973307
485,marang,5.2056,103.2059,25.95,90,59,2.12,MY,1722973307
486,yung shue wan,22.2333,114.1167,29.86,85,5,3.91,HK,1722973307
487,zagora,30.3484,-5.8365,38.43,8,0,4.09,MA,1722973307
488,strugi-krasnyye,58.2675,29.1114,13.99,96,48,1.96,RU,1722973307
489,severo-yeniseyskiy,60.3725,93.0408,13.31,96,66,1.72,RU,1722973307
490,lagoa,39.05,-27.9833,22.5,75,0,5.39,PT,1722973307
491,cartagena,10.3997,-75.5144,28.79,79,75,2.06,CO,1722973144
492,bojia,26.4672,111.9681,27.19,81,74,0.51,CN,1722973307
493,namibe,-15.1961,12.1522,18.2,94,40,2.46,AO,1722973307
494,niquero,20.0431,-77.5828,30.6,75,99,2.75,CU,1722973307
495,itoman,26.1247,127.6694,29.43,94,40,2.06,JP,1722973307
496,forster,-32.1667,152.5167,9.44,86,90,2.28,AU,1722973307
497,minot air force base,48.4209,-101.3391,24.1,50,40,8.23,US,1722973307
498,bubaque,11.2833,-15.8333,26.46,83,100,7.63,GW,1722973307
499,lazaro cardenas,17.9583,-102.2,31.07,61,67,4.08,MX,1722973308
500,camargo,27.6667,-105.1667,32.35,29,100,1.78,MX,1722973308
501,kourou,5.1552,-52.6478,31.03,68,35,3.8,GF,1722973308
502,kill devil hills,36.0307,-75.676,25.01,95,40,5.14,US,1722973267
503,mosjoen,65.836,13.1908,20.29,68,20,0.0,NO,1722973308
504,kirensk,57.7853,108.1119,14.31,67,29,1.06,RU,1722973308
505,linton,39.0348,-87.1658,34.93,46,0,5.15,US,1722973308
506,crane,31.3974,-102.3501,35.68,21,0,4.9,US,1722973308
507,charleston,32.7766,-79.9309,26.7,94,100,4.63,US,1722973308
508,bir el ater,34.7449,8.0602,27.79,30,0,2.94,DZ,1722973308
509,oodweyne,9.4092,45.064,27.19,46,94,6.88,SO,1722973308
510,cheremukhovo,60.3484,59.9851,9.19,97,100,2.5,RU,1722973308
511,filadelfia,39.9523,-75.1638,34.08,69,75,6.69,US,1722973304
512,howrah,22.5892,88.3103,28.0,94,40,1.54,IN,1722973308
513,okulovka,58.4008,33.2908,14.37,90,41,1.2,RU,1722973309
514,yelm,46.942,-122.606,18.4,63,100,4.12,US,1722973309
515,ouadda,8.0777,22.4007,20.62,95,100,1.5,CF,1722973309
516,taltal,-25.4,-70.4833,15.25,77,21,1.83,CL,1722973309
517,tianpeng,30.9866,103.9393,27.26,83,100,1.55,CN,1722973309
518,ruwandiz,36.6163,44.5311,29.26,21,0,1.71,IQ,1722973309
519,kapit,2.0167,112.9333,23.01,100,100,0.57,MY,1722973309
520,hirosaki,40.5931,140.4725,23.06,99,64,0.68,JP,1722973309
521,linxia chengguanzhen,35.6003,103.2064,15.08,82,100,0.29,CN,1722973309
522,penzance,50.1186,-5.5371,17.38,83,0,7.16,GB,1722973309
523,hono,57.6897,11.6497,17.35,81,62,2.91,SE,1722973309
524,thames,-37.1333,175.5333,5.78,92,2,0.76,NZ,1722973309
525,ponta delgada,37.7333,-25.6667,26.4,73,20,5.66,PT,1722973309
526,thinadhoo,0.5333,72.9333,28.14,68,54,1.54,MV,1722973309
527,lerwick,60.1545,-1.1494,14.0,91,0,3.56,GB,1722973309
528,otsuchi,39.3667,141.9,22.23,90,0,1.35,JP,1722973309
529,i-n-salah,27.1935,2.4607,37.97,13,1,6.11,DZ,1722973310
530,piti village,13.4626,144.6933,27.49,85,0,0.0,GU,1722973310
531,mezhdurechensk,53.6942,88.0603,12.89,98,62,1.38,RU,1722973310
532,taro,-8.3862,115.28,22.0,100,99,1.2,ID,1722973310
533,zhosaly,45.4878,64.0781,30.46,26,15,1.94,KZ,1722973310
534,hilo,19.7297,-155.09,27.83,74,0,2.68,US,1722973231
535,queenstown,-31.8976,26.8753,10.63,21,0,1.96,ZA,1722973310
536,guiuan,11.0333,125.7247,28.89,76,100,5.64,PH,1722973310
537,dunedin,-45.8742,170.5036,5.45,85,31,2.38,NZ,1722973310
538,puerto maldonado,-12.6,-69.1833,30.22,70,20,3.09,PE,1722973310
539,tadine,-21.55,167.8833,19.09,74,100,4.25,NC,1722973310
540,hudson,40.7168,-74.0663,33.26,65,75,6.26,US,1722973310
541,touros,-5.1989,-35.4608,25.27,78,14,7.18,BR,1722973258
542,ilhabela,-23.7781,-45.3581,23.95,65,0,1.51,BR,1722973310
543,eyl,7.9803,49.8164,24.99,81,54,11.07,SO,1722973310
544,barclayville,4.6797,-8.2339,24.0,82,100,3.81,LR,1722973310
545,sturgeon bay,44.8342,-87.377,23.98,46,0,6.69,US,1722973091
546,vrangel',42.7297,133.0839,20.98,96,99,2.11,RU,1722973310
547,harrai,22.6167,79.2167,23.69,91,100,3.23,IN,1722973310
548,pasan,22.85,82.2,24.19,90,100,1.77,IN,1722973311
549,murzuq,25.9155,13.9184,33.34,13,0,4.64,LY,1722973311
550,altai,46.3722,96.2583,13.44,28,32,1.35,MN,1722973311
551,popondetta,-8.7537,148.2534,21.76,96,62,1.04,PG,1722973311
552,fort st. john,56.2499,-120.8529,14.94,88,40,3.6,CA,1722973311
553,nemuro,43.3236,145.575,17.4,100,100,2.58,JP,1722973311
554,fort bragg,35.139,-79.006,25.08,94,75,4.63,US,1722973311
555,sao vicente,-23.9631,-46.3919,33.1,72,26,0.72,BR,1722973311
556,north scituate,41.8318,-71.5873,21.33,94,100,4.12,US,1722973311
557,masaurhi buzurg,25.35,85.0333,29.94,80,100,2.88,IN,1722973311
558,munderkingen,48.2357,9.644,22.87,100,100,0.37,DE,1722973311
559,taoudenni,22.6783,-3.9836,41.77,12,28,3.2,ML,1722973311
560,puerto lempira,15.2667,-83.7667,32.08,62,75,6.17,HN,1722973311
561,gunjur,13.2019,-16.7339,26.04,94,75,0.0,GM,1722973311
562,khao yoi,13.2403,99.8243,26.05,83,95,1.69,TH,1722973311
563,port alberni,49.2413,-124.8028,22.7,45,0,0.46,CA,1722973311
564,kattivakkam,13.2167,80.3167,26.65,95,100,3.7,IN,1722973311
565,zapolyarnyy,69.4154,30.8136,17.6,67,14,0.84,RU,1722973311
566,shakhan,49.8233,72.6342,20.96,53,49,3.23,KZ,1722973311
567,farafangana,-22.8167,47.8333,21.47,84,74,0.77,MG,1722973311
568,yanchep,-31.55,115.6833,17.19,92,99,9.64,AU,1722973312
569,zhengjiatun,43.5064,123.5064,21.93,93,75,2.97,CN,1722973312
